[{"CountyName":"臺北市","TownName":"中正區","longitude":121.5198839,"latitude":25.03240487},{"CountyName":"臺北市","TownName":"大同區","longitude":121.5130417,"latitude":25.06342433},{"CountyName":"臺北市","TownName":"中山區","longitude":121.5381597,"latitude":25.06969917},{"CountyName":"臺北市","TownName":"松山區","longitude":121.5575876,"latitude":25.05999101},{"CountyName":"臺北市","TownName":"大安區","longitude":121.5434446,"latitude":25.02677012},{"CountyName":"臺北市","TownName":"萬華區","longitude":121.4979858,"latitude":25.0285899},{"CountyName":"臺北市","TownName":"信義區","longitude":121.5716697,"latitude":25.03062083},{"CountyName":"臺北市","TownName":"士林區","longitude":121.5508473,"latitude":25.12546704},{"CountyName":"臺北市","TownName":"北投區","longitude":121.5177992,"latitude":25.1480682},{"CountyName":"臺北市","TownName":"內湖區","longitude":121.5923828,"latitude":25.08370623},{"CountyName":"臺北市","TownName":"南港區","longitude":121.6097573,"latitude":25.03600934},{"CountyName":"臺北市","TownName":"文山區","longitude":121.5736082,"latitude":24.98857934},{"CountyName":"基隆市","TownName":"仁愛區","longitude":121.7434205,"latitude":25.11945421},{"CountyName":"基隆市","TownName":"信義區","longitude":121.772646,"latitude":25.12576579},{"CountyName":"基隆市","TownName":"中正區","longitude":121.7783549,"latitude":25.14365754},{"CountyName":"基隆市","TownName":"中山區","longitude":121.7308913,"latitude":25.14986365},{"CountyName":"基隆市","TownName":"安樂區","longitude":121.7078325,"latitude":25.14139521},{"CountyName":"基隆市","TownName":"暖暖區","longitude":121.7447344,"latitude":25.08097003},{"CountyName":"基隆市","TownName":"七堵區","longitude":121.683628,"latitude":25.10962028},{"CountyName":"新北市","TownName":"萬里區","longitude":121.6439307,"latitude":25.17572457},{"CountyName":"新北市","TownName":"金山區","longitude":121.6052639,"latitude":25.21714594},{"CountyName":"連江縣","TownName":"南竿鄉","longitude":119.931128,"latitude":26.154321},{"CountyName":"連江縣","TownName":"北竿鄉","longitude":119.994251,"latitude":26.225637},{"CountyName":"連江縣","TownName":"莒光鄉","longitude":119.938877,"latitude":25.97298},{"CountyName":"連江縣","TownName":"東引鄉","longitude":120.4903,"latitude":26.366101},{"CountyName":"新北市","TownName":"板橋區","longitude":121.4579675,"latitude":25.01186453},{"CountyName":"新北市","TownName":"汐止區","longitude":121.6546992,"latitude":25.07331322},{"CountyName":"新北市","TownName":"深坑區","longitude":121.6200624,"latitude":24.99767506},{"CountyName":"新北市","TownName":"石碇區","longitude":121.6472277,"latitude":24.94714107},{"CountyName":"新北市","TownName":"瑞芳區","longitude":121.8232018,"latitude":25.0981293},{"CountyName":"新北市","TownName":"平溪區","longitude":121.7578817,"latitude":25.02607068},{"CountyName":"新北市","TownName":"雙溪區","longitude":121.8329822,"latitude":24.99698394},{"CountyName":"新北市","TownName":"貢寮區","longitude":121.9182466,"latitude":25.02485641},{"CountyName":"新北市","TownName":"新店區","longitude":121.5316565,"latitude":24.93039008},{"CountyName":"新北市","TownName":"坪林區","longitude":121.724223,"latitude":24.91097073},{"CountyName":"新北市","TownName":"烏來區","longitude":121.5414806,"latitude":24.78824295},{"CountyName":"新北市","TownName":"永和區","longitude":121.516745,"latitude":25.00810199},{"CountyName":"新北市","TownName":"中和區","longitude":121.4936744,"latitude":24.99088039},{"CountyName":"新北市","TownName":"土城區","longitude":121.445737,"latitude":24.96425102},{"CountyName":"新北市","TownName":"三峽區","longitude":121.4163094,"latitude":24.88209766},{"CountyName":"新北市","TownName":"樹林區","longitude":121.401034,"latitude":24.97970609},{"CountyName":"新北市","TownName":"鶯歌區","longitude":121.3466269,"latitude":24.9566258},{"CountyName":"新北市","TownName":"三重區","longitude":121.4870977,"latitude":25.06281651},{"CountyName":"新北市","TownName":"新莊區","longitude":121.4367535,"latitude":25.0358303},{"CountyName":"新北市","TownName":"泰山區","longitude":121.4162785,"latitude":25.05549774},{"CountyName":"新北市","TownName":"林口區","longitude":121.3527235,"latitude":25.1000868},{"CountyName":"新北市","TownName":"蘆洲區","longitude":121.4712461,"latitude":25.08927173},{"CountyName":"新北市","TownName":"五股區","longitude":121.4332139,"latitude":25.09614746},{"CountyName":"新北市","TownName":"八里區","longitude":121.4138359,"latitude":25.13812763},{"CountyName":"新北市","TownName":"淡水區","longitude":121.463904,"latitude":25.18907636},{"CountyName":"新北市","TownName":"三芝區","longitude":121.515558,"latitude":25.23159891},{"CountyName":"新北市","TownName":"石門區","longitude":121.5692761,"latitude":25.26518079},{"CountyName":"宜蘭縣","TownName":"宜蘭市","longitude":121.7569358,"latitude":24.75021184},{"CountyName":"宜蘭縣","TownName":"頭城鎮","longitude":121.845797,"latitude":24.90075882},{"CountyName":"宜蘭縣","TownName":"礁溪鄉","longitude":121.7346606,"latitude":24.81144192},{"CountyName":"宜蘭縣","TownName":"壯圍鄉","longitude":121.8017622,"latitude":24.75183042},{"CountyName":"宜蘭縣","TownName":"員山鄉","longitude":121.6612282,"latitude":24.74199237},{"CountyName":"宜蘭縣","TownName":"羅東鎮","longitude":121.7701782,"latitude":24.67884824},{"CountyName":"宜蘭縣","TownName":"三星鄉","longitude":121.6642714,"latitude":24.66771972},{"CountyName":"宜蘭縣","TownName":"大同鄉","longitude":121.5040369,"latitude":24.55152082},{"CountyName":"宜蘭縣","TownName":"五結鄉","longitude":121.8058342,"latitude":24.68887343},{"CountyName":"宜蘭縣","TownName":"冬山鄉","longitude":121.760255,"latitude":24.64214986},{"CountyName":"宜蘭縣","TownName":"蘇澳鎮","longitude":121.8346892,"latitude":24.55467058},{"CountyName":"宜蘭縣","TownName":"南澳鄉","longitude":121.6560593,"latitude":24.44864058},{"CountyName":"宜蘭縣","TownName":"釣魚臺列嶼","longitude":123.475482,"latitude":25.746396},{"CountyName":"新竹市","TownName":"北區","longitude":120.9491233,"latitude":24.82269542},{"CountyName":"新竹市","TownName":"東區","longitude":120.9927505,"latitude":24.79028174},{"CountyName":"新竹市","TownName":"香山區","longitude":120.9236727,"latitude":24.77104342},{"CountyName":"新竹縣","TownName":"竹北市","longitude":120.9948704,"latitude":24.83816209},{"CountyName":"新竹縣","TownName":"湖口鄉","longitude":121.0517242,"latitude":24.88566341},{"CountyName":"新竹縣","TownName":"新豐鄉","longitude":120.9956033,"latitude":24.90731298},{"CountyName":"新竹縣","TownName":"新埔鎮","longitude":121.0939886,"latitude":24.84133959},{"CountyName":"新竹縣","TownName":"關西鎮","longitude":121.1866221,"latitude":24.78514681},{"CountyName":"新竹縣","TownName":"芎林鄉","longitude":121.1046394,"latitude":24.7657116},{"CountyName":"新竹縣","TownName":"寶山鄉","longitude":120.9991605,"latitude":24.73697351},{"CountyName":"新竹縣","TownName":"竹東鎮","longitude":121.0753632,"latitude":24.73075802},{"CountyName":"新竹縣","TownName":"五峰鄉","longitude":121.1389495,"latitude":24.578054},{"CountyName":"新竹縣","TownName":"橫山鄉","longitude":121.1469732,"latitude":24.7078092},{"CountyName":"新竹縣","TownName":"尖石鄉","longitude":121.2819341,"latitude":24.59493235},{"CountyName":"新竹縣","TownName":"北埔鄉","longitude":121.0642745,"latitude":24.67207405},{"CountyName":"新竹縣","TownName":"峨眉鄉","longitude":121.0110809,"latitude":24.67811197},{"CountyName":"桃園市","TownName":"中壢區","longitude":121.2147243,"latitude":24.97993803},{"CountyName":"桃園市","TownName":"平鎮區","longitude":121.2140051,"latitude":24.92117923},{"CountyName":"桃園市","TownName":"龍潭區","longitude":121.2117877,"latitude":24.85064954},{"CountyName":"桃園市","TownName":"楊梅區","longitude":121.1291697,"latitude":24.91820989},{"CountyName":"桃園市","TownName":"新屋區","longitude":121.067758,"latitude":24.97280352},{"CountyName":"桃園市","TownName":"觀音區","longitude":121.1155021,"latitude":25.02671611},{"CountyName":"桃園市","TownName":"桃園區","longitude":121.2996612,"latitude":25.00040024},{"CountyName":"桃園市","TownName":"龜山區","longitude":121.3569265,"latitude":25.02417472},{"CountyName":"桃園市","TownName":"八德區","longitude":121.2913102,"latitude":24.94968903},{"CountyName":"桃園市","TownName":"大溪區","longitude":121.296342,"latitude":24.86797026},{"CountyName":"桃園市","TownName":"復興區","longitude":121.3754588,"latitude":24.72949884},{"CountyName":"桃園市","TownName":"大園區","longitude":121.21177,"latitude":25.06384709},{"CountyName":"桃園市","TownName":"蘆竹區","longitude":121.2831266,"latitude":25.06073337},{"CountyName":"苗栗縣","TownName":"竹南鎮","longitude":120.8777316,"latitude":24.69862459},{"CountyName":"苗栗縣","TownName":"頭份市","longitude":120.9189437,"latitude":24.67628243},{"CountyName":"苗栗縣","TownName":"三灣鄉","longitude":120.9525745,"latitude":24.63599405},{"CountyName":"苗栗縣","TownName":"南庄鄉","longitude":121.017471,"latitude":24.56608432},{"CountyName":"苗栗縣","TownName":"獅潭鄉","longitude":120.9206688,"latitude":24.51978614},{"CountyName":"苗栗縣","TownName":"後龍鎮","longitude":120.781205,"latitude":24.6156265},{"CountyName":"苗栗縣","TownName":"通霄鎮","longitude":120.7146378,"latitude":24.4850464},{"CountyName":"苗栗縣","TownName":"苑裡鎮","longitude":120.6882195,"latitude":24.4110232},{"CountyName":"苗栗縣","TownName":"苗栗市","longitude":120.8112299,"latitude":24.56382141},{"CountyName":"苗栗縣","TownName":"造橋鄉","longitude":120.8695663,"latitude":24.62481314},{"CountyName":"苗栗縣","TownName":"頭屋鄉","longitude":120.8826631,"latitude":24.57345497},{"CountyName":"苗栗縣","TownName":"公館鄉","longitude":120.8505904,"latitude":24.50249686},{"CountyName":"苗栗縣","TownName":"大湖鄉","longitude":120.8631192,"latitude":24.39359641},{"CountyName":"苗栗縣","TownName":"泰安鄉","longitude":121.0681571,"latitude":24.41925819},{"CountyName":"苗栗縣","TownName":"銅鑼鄉","longitude":120.7992043,"latitude":24.45591832},{"CountyName":"苗栗縣","TownName":"三義鄉","longitude":120.7701929,"latitude":24.38081659},{"CountyName":"苗栗縣","TownName":"西湖鄉","longitude":120.7614144,"latitude":24.54153218},{"CountyName":"苗栗縣","TownName":"卓蘭鎮","longitude":120.8561966,"latitude":24.32510167},{"CountyName":"臺中市","TownName":"中區","longitude":120.680598,"latitude":24.14168566},{"CountyName":"臺中市","TownName":"東區","longitude":120.6970865,"latitude":24.13733209},{"CountyName":"臺中市","TownName":"南區","longitude":120.6646178,"latitude":24.12114107},{"CountyName":"臺中市","TownName":"西區","longitude":120.6647579,"latitude":24.14391082},{"CountyName":"臺中市","TownName":"北區","longitude":120.6809521,"latitude":24.15863985},{"CountyName":"臺中市","TownName":"北屯區","longitude":120.7362319,"latitude":24.18400298},{"CountyName":"臺中市","TownName":"西屯區","longitude":120.6270131,"latitude":24.18308895},{"CountyName":"臺中市","TownName":"南屯區","longitude":120.6177379,"latitude":24.14165524},{"CountyName":"臺中市","TownName":"太平區","longitude":120.7734217,"latitude":24.11477375},{"CountyName":"臺中市","TownName":"大里區","longitude":120.6926261,"latitude":24.09575742},{"CountyName":"臺中市","TownName":"霧峰區","longitude":120.7201989,"latitude":24.04332785},{"CountyName":"臺中市","TownName":"烏日區","longitude":120.6293305,"latitude":24.0839271},{"CountyName":"臺中市","TownName":"豐原區","longitude":120.7375715,"latitude":24.24990298},{"CountyName":"臺中市","TownName":"后里區","longitude":120.7146127,"latitude":24.30962483},{"CountyName":"臺中市","TownName":"石岡區","longitude":120.7903822,"latitude":24.26493299},{"CountyName":"臺中市","TownName":"東勢區","longitude":120.8401401,"latitude":24.24952637},{"CountyName":"臺中市","TownName":"和平區","longitude":121.140185,"latitude":24.27620277},{"CountyName":"臺中市","TownName":"新社區","longitude":120.8313228,"latitude":24.17769289},{"CountyName":"臺中市","TownName":"潭子區","longitude":120.710997,"latitude":24.21171121},{"CountyName":"臺中市","TownName":"大雅區","longitude":120.6411818,"latitude":24.22704181},{"CountyName":"臺中市","TownName":"神岡區","longitude":120.6733321,"latitude":24.26568008},{"CountyName":"臺中市","TownName":"大肚區","longitude":120.5543243,"latitude":24.14467504},{"CountyName":"臺中市","TownName":"沙鹿區","longitude":120.5838628,"latitude":24.23425212},{"CountyName":"臺中市","TownName":"龍井區","longitude":120.5283728,"latitude":24.20062892},{"CountyName":"臺中市","TownName":"梧棲區","longitude":120.5301259,"latitude":24.24552431},{"CountyName":"臺中市","TownName":"清水區","longitude":120.5809094,"latitude":24.29205743},{"CountyName":"臺中市","TownName":"大甲區","longitude":120.6357901,"latitude":24.37827161},{"CountyName":"臺中市","TownName":"外埔區","longitude":120.6650639,"latitude":24.33551071},{"CountyName":"臺中市","TownName":"大安區","longitude":120.5914407,"latitude":24.36509555},{"CountyName":"彰化縣","TownName":"彰化市","longitude":120.5694208,"latitude":24.07532909},{"CountyName":"彰化縣","TownName":"芬園鄉","longitude":120.6294414,"latitude":24.00628794},{"CountyName":"彰化縣","TownName":"花壇鄉","longitude":120.5597655,"latitude":24.03006875},{"CountyName":"彰化縣","TownName":"秀水鄉","longitude":120.5041184,"latitude":24.03249405},{"CountyName":"彰化縣","TownName":"鹿港鎮","longitude":120.4385491,"latitude":24.08286685},{"CountyName":"彰化縣","TownName":"福興鄉","longitude":120.4310511,"latitude":24.03021674},{"CountyName":"彰化縣","TownName":"線西鄉","longitude":120.452157,"latitude":24.13158127},{"CountyName":"彰化縣","TownName":"和美鎮","longitude":120.5112045,"latitude":24.11379535},{"CountyName":"彰化縣","TownName":"伸港鄉","longitude":120.486449,"latitude":24.16367107},{"CountyName":"彰化縣","TownName":"員林市","longitude":120.593073,"latitude":23.95650448},{"CountyName":"彰化縣","TownName":"社頭鄉","longitude":120.6021661,"latitude":23.90536413},{"CountyName":"彰化縣","TownName":"永靖鄉","longitude":120.5416032,"latitude":23.92139507},{"CountyName":"彰化縣","TownName":"埔心鄉","longitude":120.5342802,"latitude":23.95277521},{"CountyName":"彰化縣","TownName":"溪湖鎮","longitude":120.4831739,"latitude":23.95171456},{"CountyName":"彰化縣","TownName":"大村鄉","longitude":120.5586866,"latitude":23.99209206},{"CountyName":"彰化縣","TownName":"埔鹽鄉","longitude":120.4594626,"latitude":23.99204417},{"CountyName":"彰化縣","TownName":"田中鎮","longitude":120.5903471,"latitude":23.85723872},{"CountyName":"彰化縣","TownName":"北斗鎮","longitude":120.5331566,"latitude":23.867574},{"CountyName":"彰化縣","TownName":"田尾鄉","longitude":120.5223244,"latitude":23.90056065},{"CountyName":"彰化縣","TownName":"埤頭鄉","longitude":120.4675642,"latitude":23.88234118},{"CountyName":"彰化縣","TownName":"溪州鄉","longitude":120.5224904,"latitude":23.82725185},{"CountyName":"彰化縣","TownName":"竹塘鄉","longitude":120.4136645,"latitude":23.8505872},{"CountyName":"彰化縣","TownName":"二林鎮","longitude":120.404225,"latitude":23.91621405},{"CountyName":"彰化縣","TownName":"大城鄉","longitude":120.3113284,"latitude":23.85069276},{"CountyName":"彰化縣","TownName":"芳苑鄉","longitude":120.3539226,"latitude":23.9537906},{"CountyName":"彰化縣","TownName":"二水鄉","longitude":120.628589,"latitude":23.8092402},{"CountyName":"南投縣","TownName":"南投市","longitude":120.6787658,"latitude":23.92173537},{"CountyName":"南投縣","TownName":"中寮鄉","longitude":120.7859159,"latitude":23.90589214},{"CountyName":"南投縣","TownName":"草屯鎮","longitude":120.7326182,"latitude":23.98321081},{"CountyName":"南投縣","TownName":"國姓鄉","longitude":120.8676052,"latitude":24.03135413},{"CountyName":"南投縣","TownName":"埔里鎮","longitude":120.9625259,"latitude":23.97892591},{"CountyName":"南投縣","TownName":"仁愛鄉","longitude":121.1443879,"latitude":24.02886513},{"CountyName":"南投縣","TownName":"名間鄉","longitude":120.6774402,"latitude":23.8510771},{"CountyName":"南投縣","TownName":"集集鎮","longitude":120.7854192,"latitude":23.83701687},{"CountyName":"南投縣","TownName":"水里鄉","longitude":120.8622721,"latitude":23.79612907},{"CountyName":"南投縣","TownName":"魚池鄉","longitude":120.9256736,"latitude":23.87601213},{"CountyName":"南投縣","TownName":"信義鄉","longitude":121.0212867,"latitude":23.6554647},{"CountyName":"南投縣","TownName":"竹山鎮","longitude":120.7100797,"latitude":23.69805518},{"CountyName":"南投縣","TownName":"鹿谷鄉","longitude":120.7815065,"latitude":23.73776029},{"CountyName":"嘉義市","TownName":"西區","longitude":120.4248724,"latitude":23.47915529},{"CountyName":"嘉義市","TownName":"東區","longitude":120.4706244,"latitude":23.48170334},{"CountyName":"嘉義縣","TownName":"番路鄉","longitude":120.6075335,"latitude":23.42765669},{"CountyName":"嘉義縣","TownName":"梅山鄉","longitude":120.6387459,"latitude":23.55535465},{"CountyName":"嘉義縣","TownName":"竹崎鄉","longitude":120.5965771,"latitude":23.50376527},{"CountyName":"嘉義縣","TownName":"阿里山鄉","longitude":120.7596173,"latitude":23.44077619},{"CountyName":"嘉義縣","TownName":"中埔鄉","longitude":120.5365312,"latitude":23.40408998},{"CountyName":"嘉義縣","TownName":"大埔鄉","longitude":120.5896466,"latitude":23.28848426},{"CountyName":"嘉義縣","TownName":"水上鄉","longitude":120.4147357,"latitude":23.42911287},{"CountyName":"嘉義縣","TownName":"鹿草鄉","longitude":120.3045468,"latitude":23.40811736},{"CountyName":"嘉義縣","TownName":"太保市","longitude":120.3440009,"latitude":23.4729191},{"CountyName":"嘉義縣","TownName":"朴子市","longitude":120.2538977,"latitude":23.44610605},{"CountyName":"嘉義縣","TownName":"東石鄉","longitude":120.1738682,"latitude":23.46866059},{"CountyName":"嘉義縣","TownName":"六腳鄉","longitude":120.2714728,"latitude":23.51020984},{"CountyName":"嘉義縣","TownName":"新港鄉","longitude":120.3482873,"latitude":23.54581295},{"CountyName":"嘉義縣","TownName":"民雄鄉","longitude":120.4442798,"latitude":23.54255347},{"CountyName":"嘉義縣","TownName":"大林鎮","longitude":120.4807865,"latitude":23.59890827},{"CountyName":"嘉義縣","TownName":"溪口鄉","longitude":120.4010282,"latitude":23.59353089},{"CountyName":"嘉義縣","TownName":"義竹鄉","longitude":120.2239433,"latitude":23.34575872},{"CountyName":"嘉義縣","TownName":"布袋鎮","longitude":120.1777498,"latitude":23.37494276},{"CountyName":"雲林縣","TownName":"斗南鎮","longitude":120.4826356,"latitude":23.67066393},{"CountyName":"雲林縣","TownName":"大埤鄉","longitude":120.4255592,"latitude":23.6455971},{"CountyName":"雲林縣","TownName":"虎尾鎮","longitude":120.4293061,"latitude":23.71661545},{"CountyName":"雲林縣","TownName":"土庫鎮","longitude":120.3647252,"latitude":23.69110665},{"CountyName":"雲林縣","TownName":"褒忠鄉","longitude":120.3116122,"latitude":23.71613204},{"CountyName":"雲林縣","TownName":"東勢鄉","longitude":120.2564173,"latitude":23.69612324},{"CountyName":"雲林縣","TownName":"臺西鄉","longitude":120.2054952,"latitude":23.71600815},{"CountyName":"雲林縣","TownName":"崙背鄉","longitude":120.3339769,"latitude":23.77849791},{"CountyName":"雲林縣","TownName":"麥寮鄉","longitude":120.243533,"latitude":23.78817056},{"CountyName":"雲林縣","TownName":"斗六市","longitude":120.5600044,"latitude":23.70651883},{"CountyName":"雲林縣","TownName":"林內鄉","longitude":120.6155018,"latitude":23.7557209},{"CountyName":"雲林縣","TownName":"古坑鄉","longitude":120.6117351,"latitude":23.62545469},{"CountyName":"雲林縣","TownName":"莿桐鄉","longitude":120.5290419,"latitude":23.76973894},{"CountyName":"雲林縣","TownName":"西螺鎮","longitude":120.4580795,"latitude":23.77942109},{"CountyName":"雲林縣","TownName":"二崙鄉","longitude":120.3964598,"latitude":23.7925521},{"CountyName":"雲林縣","TownName":"北港鎮","longitude":120.2940164,"latitude":23.59219528},{"CountyName":"雲林縣","TownName":"水林鄉","longitude":120.2352734,"latitude":23.56162849},{"CountyName":"雲林縣","TownName":"口湖鄉","longitude":120.1413711,"latitude":23.55365395},{"CountyName":"雲林縣","TownName":"四湖鄉","longitude":120.2064699,"latitude":23.64206875},{"CountyName":"雲林縣","TownName":"元長鄉","longitude":120.3279617,"latitude":23.64243095},{"CountyName":"臺南市","TownName":"中西區","longitude":120.192874,"latitude":22.99594458},{"CountyName":"臺南市","TownName":"東區","longitude":120.2281858,"latitude":22.98178202},{"CountyName":"臺南市","TownName":"南區","longitude":120.1903743,"latitude":22.95561863},{"CountyName":"臺南市","TownName":"北區","longitude":120.2068735,"latitude":23.01012179},{"CountyName":"臺南市","TownName":"安平區","longitude":120.1649949,"latitude":22.99008437},{"CountyName":"臺南市","TownName":"安南區","longitude":120.1526189,"latitude":23.04869681},{"CountyName":"臺南市","TownName":"永康區","longitude":120.2542795,"latitude":23.02729532},{"CountyName":"臺南市","TownName":"歸仁區","longitude":120.2930627,"latitude":22.94679469},{"CountyName":"臺南市","TownName":"新化區","longitude":120.3357964,"latitude":23.03394545},{"CountyName":"臺南市","TownName":"左鎮區","longitude":120.4123917,"latitude":23.02604611},{"CountyName":"臺南市","TownName":"玉井區","longitude":120.4609622,"latitude":23.11480926},{"CountyName":"臺南市","TownName":"楠西區","longitude":120.5170304,"latitude":23.17885854},{"CountyName":"臺南市","TownName":"南化區","longitude":120.5441223,"latitude":23.1151111},{"CountyName":"臺南市","TownName":"仁德區","longitude":120.2418788,"latitude":22.94130931},{"CountyName":"臺南市","TownName":"關廟區","longitude":120.3342821,"latitude":22.95577909},{"CountyName":"臺南市","TownName":"龍崎區","longitude":120.3869373,"latitude":22.95482276},{"CountyName":"臺南市","TownName":"官田區","longitude":120.3479918,"latitude":23.19098548},{"CountyName":"臺南市","TownName":"麻豆區","longitude":120.241308,"latitude":23.18248033},{"CountyName":"臺南市","TownName":"佳里區","longitude":120.178593,"latitude":23.1669941},{"CountyName":"臺南市","TownName":"西港區","longitude":120.2002309,"latitude":23.12491893},{"CountyName":"臺南市","TownName":"七股區","longitude":120.1005854,"latitude":23.12326578},{"CountyName":"臺南市","TownName":"將軍區","longitude":120.1276958,"latitude":23.20834413},{"CountyName":"臺南市","TownName":"學甲區","longitude":120.1841865,"latitude":23.25219805},{"CountyName":"臺南市","TownName":"北門區","longitude":120.1262357,"latitude":23.2777708},{"CountyName":"臺南市","TownName":"新營區","longitude":120.2954067,"latitude":23.30152488},{"CountyName":"臺南市","TownName":"後壁區","longitude":120.3485081,"latitude":23.36201478},{"CountyName":"臺南市","TownName":"白河區","longitude":120.4578565,"latitude":23.35132068},{"CountyName":"臺南市","TownName":"東山區","longitude":120.4441211,"latitude":23.2783187},{"CountyName":"臺南市","TownName":"六甲區","longitude":120.3800259,"latitude":23.2272672},{"CountyName":"臺南市","TownName":"下營區","longitude":120.26484,"latitude":23.23103978},{"CountyName":"臺南市","TownName":"柳營區","longitude":120.3549205,"latitude":23.26887001},{"CountyName":"臺南市","TownName":"鹽水區","longitude":120.2482977,"latitude":23.29798622},{"CountyName":"臺南市","TownName":"善化區","longitude":120.2988274,"latitude":23.14031072},{"CountyName":"臺南市","TownName":"大內區","longitude":120.3988147,"latitude":23.14482152},{"CountyName":"臺南市","TownName":"山上區","longitude":120.370977,"latitude":23.09689329},{"CountyName":"臺南市","TownName":"新市區","longitude":120.2923941,"latitude":23.08319496},{"CountyName":"臺南市","TownName":"安定區","longitude":120.2296235,"latitude":23.09974927},{"CountyName":"高雄市","TownName":"新興區","longitude":120.3067337,"latitude":22.62992906},{"CountyName":"高雄市","TownName":"前金區","longitude":120.2944217,"latitude":22.6269905},{"CountyName":"高雄市","TownName":"苓雅區","longitude":120.3209103,"latitude":22.62359448},{"CountyName":"高雄市","TownName":"鹽埕區","longitude":120.2842331,"latitude":22.62424585},{"CountyName":"高雄市","TownName":"鼓山區","longitude":120.274163,"latitude":22.65019525},{"CountyName":"高雄市","TownName":"旗津區","longitude":120.2891539,"latitude":22.58565583},{"CountyName":"高雄市","TownName":"前鎮區","longitude":120.3146749,"latitude":22.59269724},{"CountyName":"高雄市","TownName":"三民區","longitude":120.3179187,"latitude":22.64989883},{"CountyName":"高雄市","TownName":"楠梓區","longitude":120.300758,"latitude":22.72109961},{"CountyName":"高雄市","TownName":"小港區","longitude":120.3592605,"latitude":22.55140207},{"CountyName":"高雄市","TownName":"左營區","longitude":120.2951588,"latitude":22.68395699},{"CountyName":"高雄市","TownName":"仁武區","longitude":120.3605265,"latitude":22.70120782},{"CountyName":"高雄市","TownName":"大社區","longitude":120.3707994,"latitude":22.73983479},{"CountyName":"南海諸","TownName":"島東沙群島","longitude":116.906984,"latitude":20.705842},{"CountyName":"南海諸","TownName":"島南沙群島","longitude":115.812406,"latitude":10.724232},{"CountyName":"高雄市","TownName":"岡山區","longitude":120.2978906,"latitude":22.80505886},{"CountyName":"高雄市","TownName":"路竹區","longitude":120.2659871,"latitude":22.85724171},{"CountyName":"高雄市","TownName":"阿蓮區","longitude":120.3210967,"latitude":22.87022883},{"CountyName":"高雄市","TownName":"田寮區","longitude":120.3959842,"latitude":22.86394307},{"CountyName":"高雄市","TownName":"燕巢區","longitude":120.370799,"latitude":22.78769626},{"CountyName":"高雄市","TownName":"橋頭區","longitude":120.3006534,"latitude":22.75252398},{"CountyName":"高雄市","TownName":"梓官區","longitude":120.2593989,"latitude":22.748209},{"CountyName":"高雄市","TownName":"彌陀區","longitude":120.2394571,"latitude":22.77944528},{"CountyName":"高雄市","TownName":"永安區","longitude":120.228051,"latitude":22.82224585},{"CountyName":"高雄市","TownName":"湖內區","longitude":120.2259375,"latitude":22.89324952},{"CountyName":"高雄市","TownName":"鳳山區","longitude":120.3554359,"latitude":22.61379251},{"CountyName":"高雄市","TownName":"大寮區","longitude":120.4111468,"latitude":22.59283576},{"CountyName":"高雄市","TownName":"林園區","longitude":120.399052,"latitude":22.50813743},{"CountyName":"高雄市","TownName":"鳥松區","longitude":120.3727783,"latitude":22.66249302},{"CountyName":"高雄市","TownName":"大樹區","longitude":120.425407,"latitude":22.71100364},{"CountyName":"高雄市","TownName":"旗山區","longitude":120.4754554,"latitude":22.86497033},{"CountyName":"高雄市","TownName":"美濃區","longitude":120.5634635,"latitude":22.90005529},{"CountyName":"高雄市","TownName":"六龜區","longitude":120.6585635,"latitude":23.01195426},{"CountyName":"高雄市","TownName":"內門區","longitude":120.4719272,"latitude":22.95668817},{"CountyName":"高雄市","TownName":"杉林區","longitude":120.5621971,"latitude":22.99694681},{"CountyName":"高雄市","TownName":"甲仙區","longitude":120.6232895,"latitude":23.11654995},{"CountyName":"高雄市","TownName":"桃源區","longitude":120.8523383,"latitude":23.2249459},{"CountyName":"高雄市","TownName":"那瑪夏區","longitude":120.741944,"latitude":23.275008},{"CountyName":"高雄市","TownName":"茂林區","longitude":120.752384,"latitude":22.91993256},{"CountyName":"高雄市","TownName":"茄萣區","longitude":120.1980519,"latitude":22.88241399},{"CountyName":"澎湖縣","TownName":"馬公市","longitude":119.59234,"latitude":23.55534},{"CountyName":"澎湖縣","TownName":"西嶼鄉","longitude":119.50783,"latitude":23.59975},{"CountyName":"澎湖縣","TownName":"望安鄉","longitude":119.50406,"latitude":23.36904},{"CountyName":"澎湖縣","TownName":"七美鄉","longitude":119.43393,"latitude":23.20108},{"CountyName":"澎湖縣","TownName":"白沙鄉","longitude":119.59251,"latitude":23.64178},{"CountyName":"澎湖縣","TownName":"湖西鄉","longitude":119.64462,"latitude":23.57364},{"CountyName":"金門縣","TownName":"金沙鎮","longitude":118.40841,"latitude":24.45865},{"CountyName":"金門縣","TownName":"金湖鎮","longitude":118.40373,"latitude":24.41496},{"CountyName":"金門縣","TownName":"金寧鄉","longitude":118.31705,"latitude":24.42482},{"CountyName":"金門縣","TownName":"金城鎮","longitude":118.30128,"latitude":24.38402},{"CountyName":"金門縣","TownName":"烈嶼鄉","longitude":118.22789,"latitude":24.40166},{"CountyName":"金門縣","TownName":"烏坵鄉","longitude":119.452738,"latitude":24.992338},{"CountyName":"屏東縣","TownName":"屏東市","longitude":120.4799948,"latitude":22.6647375},{"CountyName":"屏東縣","TownName":"三地門鄉","longitude":120.6865219,"latitude":22.79786847},{"CountyName":"屏東縣","TownName":"霧臺鄉","longitude":120.8008099,"latitude":22.75990478},{"CountyName":"屏東縣","TownName":"瑪家鄉","longitude":120.6799239,"latitude":22.67107764},{"CountyName":"屏東縣","TownName":"九如鄉","longitude":120.4845044,"latitude":22.7316677},{"CountyName":"屏東縣","TownName":"里港鄉","longitude":120.5061276,"latitude":22.79854831},{"CountyName":"屏東縣","TownName":"高樹鄉","longitude":120.6017678,"latitude":22.80992022},{"CountyName":"屏東縣","TownName":"鹽埔鄉","longitude":120.5693941,"latitude":22.74253636},{"CountyName":"屏東縣","TownName":"長治鄉","longitude":120.555979,"latitude":22.69454952},{"CountyName":"屏東縣","TownName":"麟洛鄉","longitude":120.5299693,"latitude":22.64876367},{"CountyName":"屏東縣","TownName":"竹田鄉","longitude":120.5266379,"latitude":22.58855636},{"CountyName":"屏東縣","TownName":"內埔鄉","longitude":120.5888222,"latitude":22.65116933},{"CountyName":"屏東縣","TownName":"萬丹鄉","longitude":120.4766188,"latitude":22.58849547},{"CountyName":"屏東縣","TownName":"潮州鎮","longitude":120.5568063,"latitude":22.53642947},{"CountyName":"屏東縣","TownName":"泰武鄉","longitude":120.6917929,"latitude":22.60408477},{"CountyName":"屏東縣","TownName":"來義鄉","longitude":120.6857232,"latitude":22.50157206},{"CountyName":"屏東縣","TownName":"萬巒鄉","longitude":120.601817,"latitude":22.58233459},{"CountyName":"屏東縣","TownName":"崁頂鄉","longitude":120.5006598,"latitude":22.51528151},{"CountyName":"屏東縣","TownName":"新埤鄉","longitude":120.5846257,"latitude":22.48676279},{"CountyName":"屏東縣","TownName":"南州鄉","longitude":120.5180561,"latitude":22.47980704},{"CountyName":"屏東縣","TownName":"林邊鄉","longitude":120.5125095,"latitude":22.44142101},{"CountyName":"屏東縣","TownName":"東港鎮","longitude":120.4751333,"latitude":22.46265635},{"CountyName":"屏東縣","TownName":"琉球鄉","longitude":120.3710466,"latitude":22.34000278},{"CountyName":"屏東縣","TownName":"佳冬鄉","longitude":120.5476124,"latitude":22.42980624},{"CountyName":"屏東縣","TownName":"新園鄉","longitude":120.4501429,"latitude":22.5171903},{"CountyName":"屏東縣","TownName":"枋寮鄉","longitude":120.5975845,"latitude":22.40334199},{"CountyName":"屏東縣","TownName":"枋山鄉","longitude":120.6567673,"latitude":22.27086962},{"CountyName":"屏東縣","TownName":"春日鄉","longitude":120.6975799,"latitude":22.40399754},{"CountyName":"屏東縣","TownName":"獅子鄉","longitude":120.7356454,"latitude":22.26084921},{"CountyName":"屏東縣","TownName":"車城鄉","longitude":120.7432633,"latitude":22.07915617},{"CountyName":"屏東縣","TownName":"牡丹鄉","longitude":120.8173609,"latitude":22.15552859},{"CountyName":"屏東縣","TownName":"恆春鎮","longitude":120.7632537,"latitude":21.98531645},{"CountyName":"屏東縣","TownName":"滿州鄉","longitude":120.8435675,"latitude":22.04930015},{"CountyName":"臺東縣","TownName":"臺東市","longitude":121.1103647,"latitude":22.75165721},{"CountyName":"臺東縣","TownName":"綠島鄉","longitude":121.4901951,"latitude":22.66017537},{"CountyName":"臺東縣","TownName":"蘭嶼鄉","longitude":121.5508328,"latitude":22.04616835},{"CountyName":"臺東縣","TownName":"延平鄉","longitude":120.9831902,"latitude":22.90343174},{"CountyName":"臺東縣","TownName":"卑南鄉","longitude":121.0015521,"latitude":22.76494453},{"CountyName":"臺東縣","TownName":"鹿野鄉","longitude":121.1560376,"latitude":22.95125666},{"CountyName":"臺東縣","TownName":"關山鎮","longitude":121.1766197,"latitude":23.03780684},{"CountyName":"臺東縣","TownName":"海端鄉","longitude":121.0175672,"latitude":23.11478528},{"CountyName":"臺東縣","TownName":"池上鄉","longitude":121.2184501,"latitude":23.09248714},{"CountyName":"臺東縣","TownName":"東河鄉","longitude":121.2517917,"latitude":22.98006921},{"CountyName":"臺東縣","TownName":"成功鎮","longitude":121.3537983,"latitude":23.12663716},{"CountyName":"臺東縣","TownName":"長濱鄉","longitude":121.4261725,"latitude":23.33476899},{"CountyName":"臺東縣","TownName":"太麻里鄉","longitude":120.9797643,"latitude":22.59098082},{"CountyName":"臺東縣","TownName":"金峰鄉","longitude":120.8570384,"latitude":22.58161687},{"CountyName":"臺東縣","TownName":"大武鄉","longitude":120.8991703,"latitude":22.38359522},{"CountyName":"臺東縣","TownName":"達仁鄉","longitude":120.8355239,"latitude":22.38430718},{"CountyName":"花蓮縣","TownName":"花蓮市","longitude":121.6071463,"latitude":23.99700271},{"CountyName":"花蓮縣","TownName":"新城鄉","longitude":121.6137969,"latitude":24.05579952},{"CountyName":"花蓮縣","TownName":"秀林鄉","longitude":121.4807194,"latitude":24.12374414},{"CountyName":"花蓮縣","TownName":"吉安鄉","longitude":121.5646738,"latitude":23.95546585},{"CountyName":"花蓮縣","TownName":"壽豐鄉","longitude":121.5341569,"latitude":23.84459714},{"CountyName":"花蓮縣","TownName":"鳳林鎮","longitude":121.4698848,"latitude":23.74324462},{"CountyName":"花蓮縣","TownName":"光復鄉","longitude":121.4351231,"latitude":23.64658742},{"CountyName":"花蓮縣","TownName":"豐濱鄉","longitude":121.4942331,"latitude":23.58519428},{"CountyName":"花蓮縣","TownName":"瑞穗鄉","longitude":121.4073472,"latitude":23.5156124},{"CountyName":"花蓮縣","TownName":"萬榮鄉","longitude":121.3189531,"latitude":23.72772629},{"CountyName":"花蓮縣","TownName":"玉里鎮","longitude":121.3604476,"latitude":23.37143588},{"CountyName":"花蓮縣","TownName":"卓溪鄉","longitude":121.1804222,"latitude":23.39062875},{"CountyName":"花蓮縣","TownName":"富里鄉","longitude":121.2980494,"latitude":23.19672092}]
